,Name,Dish,Area,Service,Min,Contact,WhatsApp,Website,Address,lng,lat
0,001 Cafe,"Curry Chicken Rice, Bee Hoon",East,Delivery / Self Pickup,$10 with $2.99 delivery fee (Tampines),,96989961.0,www.001Cafe.sg,300 Tampines Ave 5 #01-01C Tampines Junction Singapore 529653,103.94194050000004,1.3523310000000492
2,11th Street Teochew Fish Soup,Fish Soup,East,Tampines,Pls Enquire,92365933,,,107 Tampines Street 11,103.94829000000004,1.3483890000000542
3,168 Curry Chicken,Curry Chicken,East,Self Pickup,,,91058220.0,,51 Old Airport Road #01-72,103.88580750000006,1.3082490000000462
4,17 Teochew Fishball Noodle,Fishball Noodle,East,Delivery / Self Pickup,,98288688,,,117 Aljunied Avenue 2 #01-117,103.88702250000006,1.3206420000000207
5,283 Bukit Batok Rojak & Pancake,"Rojak, Pancake",West,Self Pickup,,86191288,,,283 Bukit Batok East Avenue 3 #01-285 Singapore 650283,103.75753950000006,1.3469400000000746
6,3 Monkeys,"Western, Pasta, Burgers",South,Islandwide,$5 per location with min $50 order,64713224,97816775.0,,122 Pasir Panjang Singapore 118544,103.79323800000009,1.2760830000000283
7,38 BBQ Seafood,BBQ Seafood,East,Self Pickup,,97382910,,,1220 East Coast Parkway #01-38 Singapore 468960,103.93485300000003,1.3067910000000325
8,493 Prawn Noodle,"Prawn Noodle, Lor Mee",West,Delivery / Self Pickup,Pls Enquire,,84480393.0,,493 Jurong West Street 41 Singapore 640493,103.72498650000006,1.3489830000000325
9,539 Bedok Kway Chap,Kway Chap,East,Self Pickup,,98312596,,,539 Bedok North Street 3 #01-593 Singapore 460539,103.92525450000005,1.3312350000000492
11,7th Heaven KTV & Cafe,Western,East,Limited Delivery,$25 FOC East and North-East Area Only,,90693097.0,,1/A Tampines Street 92 SAFRA Tampines #03-02,103.92809400000004,1.3669110000000728
13,8 Korean BBQ (Orchard),Korean,Central,Islandwide,Pls Enquire,90189212,,,1 Scotts Rd #04 - 20 / 21 Singapore 228208,103.83185250000008,1.3060440000000426
14,87 Just Thai,Thai Food,South,Delivery / Self Pickup,,64733396,97640669.0,,87 Pasir Panjang Road Singapore 118510,103.79533950000007,1.2748230000000262
15,928 Yishun Laksa,Laksa,North,Delivery / Self Pickup,$5 per location in Yishun and Khatib,,92788282.0,,928 Yishun Central 1 #01-155 Singapore 760928,103.83737850000006,1.4272110000000566
16,99 Thai Story Kitchen SG,Thai Food,North,Islandwide,$20 with $3-$10 delivery fee / $30 FOC,97738887,,,151 Bishan Street 11 #01-195,103.85555400000004,1.3450680000000261
17,A Wen Mianshi (Orchard),"Ban Mian, Fuzhou, Seafood Noodle",Central,Self Pickup,,96977813,,,304 Orchard Rd #01-41 Singapore 238863,103.83372450000007,1.3043070000000512
18,A Wen Mianshi (Serangoon),"Ban Mian, Fuzhou, Pork Rib Noodle",North,Self Pickup,,96977813,,,19 Serangoon North Avenue 5 #02-02 Singapore 554913,103.87216800000004,1.3755240000000413
20,Acoustic Cafe,"Cafe, Coffee, Brownie",North,Self Pickup,,,96713019.0,www.facebook.com/acousticcafesg,421 Ang Mo Kio Avenue 10 #01-1159,103.82936850000004,1.38013200000006
21,Affinity Cafe & Bakery,Western,North,Delivery / Self Pickup,$30 (delivery within 1km),96380982,,,149 Serangoon North Avenue 1 #01-917 Singapore 550149,103.87355850000006,1.3667760000000726
22,Ah Chiew Teochew Fishball Noodles,"Fishball Noodle, Bak Kut Teh",East,Self Pickup,,97634447,,,38 Lorong 11 Geylang Road,103.87692450000009,1.313694000000055
23,Ah Di Mee Hoon Kuey,"Ban Mian, Mee Hoon Kuey",West,Self Pickup,,85359670,,,25 Ghim Moh Link,103.78645200000005,1.3081500000000688
24,Ah Hua Fishball Noodle,Fishball Noodle,West,Self Pickup,,,88150716.0,,415 Pandan Gardens #01-117,103.74826050000007,1.3207680000000437
26,Ah Keat Kway Chap and Pig Organ Soup,"Kway Chap, Pig Organ",North,Self Pickup,,97839589,,,211 Marsiling Crescent,103.77356400000008,1.4459850000000642
27,Ah Lock Kitchen,"Hakka Yong Tau Foo, Pancake",North,Delivery / Self Pickup,FOC Woodlands only,,88260244.0,,573 Woodlands Drive 16,103.79850750000008,1.4310990000000743
28,Ah Orh Seafood Restaurant,Zi Char,South,Self Pickup,,62757575,88739661.0,,115 Jalan Bukit Merah #01-1627 Singapore 160115,103.82648850000004,1.2810780000000364
30,Ah Tai Hainanese Chicken Rice,Chicken Rice,South,Self Pickup,,81376559,,,1 Kadayanallur Street Maxwell Food Center Stall 7 Singapore 069184,103.84464150000008,1.2803850000000239
31,Ah Wai 杂菜饭/小炒,"Fried Rice, Mee Goreng",South,Self Pickup,,91511332,,,202 Henderson Road #03-18 Apex @Henderson Singapore 159545,103.82041350000009,1.2823920000000726
32,Ah Xiao Teochew Braised Duck,Braised Duck Rice,Central,Delivery / Self Pickup,Min order $10 with $6-$12 delivery fee,,91098026.0,,505 Beach Rd #B1-53 Singapore 199583,103.86388350000004,1.3028760000000261
33,Ah Yam Vegetable Stall,Vegetables,North,Islandwide# / Self Pickup,$35,,,https://ahyamvegetables.myshopify.com,209 Hougang Street 21 Kovan Market #01-195-197,103.88354850000007,1.3600620000000276
34,AHTTI Korean Restaurant,Korean,West,Islandwide,Pls Enquire,68039341,,,2 Venture Drive #02-43 Singapore 608526,103.74457500000005,1.3301550000000475
35,Ai Hut Fish Soup Seafood Soup,"Fish Soup, Seafood Soup",Central,Self Pickup,,,97690394.0,,505 Beach Road #01-107 Golden Mile Food Centre Singapore 199583,103.86388350000004,1.3028760000000261
36,Air Pasang Rumah Makan* (Bukit Batok),Halal Seafood,West,Delivery / Self Pickup,Pls Enquire,82619479,,,374 Bukit Batok Street 31 #01-192 Singapore 650374,103.75060050000008,1.3580100000000357
37,Air Pasang Rumah Makan* (Bukit Panjang),Halal Seafood,West,Delivery / Self Pickup,Pls Enquire,81109219,,,445 Fajar Shopping Mall #01-548 Singapore 670445,103.77059850000006,1.3837410000000432
38,Al-Sahira Restaurant,Muslim,North,Call to Enquire,Pls Enquire,69095932,,,163 Ang Mo Kio Avenue 4 #01-428,103.83817050000005,1.3735530000000722
39,Alma by Juan Amador,"Western, Burger, Pasta",Central,Delivery / Self Pickup,"$90 FOC for district 9,10 and 11",,,https://alma.sg/takeaway-delivery-food-menu-gallery/,22 Scotts Road Singapore 228221,103.83467850000005,1.308240000000069
41,Anything Lah Ngoh Hiang,"Ngoh Hiang, Prawn Fritters",West,Delivery / Self Pickup,Pls Enquire,87826563,,,359 Bukit Batok Street 31 Singapore 650359,103.75123050000008,1.361340000000041
42,Aroy Thai Restaurant (East Coast),Thai Food,East,Islandwide,$50 FOC / Pls Enquire,69705028,92258852.0,,205 East Coast Road Singapore 428904,103.90659300000004,1.3073310000000333
43,Aroy Thai Restaurant (Thomson),Thai Food,North,Islandwide,$50 FOC / Pls Enquire,63383880,92258852.0,,238 Thomson Road #03-61/64 Singapore 307684,103.84386300000006,1.3200210000000538
44,Ashes Burnnit,Burgers,Central,Delivery / Self Pickup,Pls Enquire,92704670,92229130.0,,505 Beach Road #B1-24 Golden Mile Food Centre Singapore 199593,103.86388350000004,1.3028760000000261
45,Atmosphere Bistro & Bar,"Western, Burger",East,Delivery / Self Pickup,,64409705,,,920 East Coast Parkway #01-25/26/27,103.90618350000005,1.2989790000000312
46,ATO,"Japanese, Ramen",Central,Delivery / Self Pickup,Pls Enquire,91376372,,,8 Wilkie Road #01-22 Singapore 228095,103.84951050000006,1.302120000000059
47,Avomin,"Brownies, Cakes, Snacks",Central,Delivery / Self Pickup,$30,98810378,,http://www.avominsg.com,138 Robinson Road Oxley Tower #02-37 Singapore 068906,103.84843950000004,1.2787020000000666
48,Bakery and Bar St. Marc,"Burgers, Pasta, Western",East,Self Pickup,Pls Enquire,63421786,63421786.0,,920 East Coast Parkway #01-09-10 Singapore 449875,103.90618350000005,1.2989790000000312
49,Ban Leong Wah Hoe,Zi Char,North,Delivery / Self Pickup,$100 FOC else $20 with $5 delivery fee (North Areas),64554013,,,122 Casuarina Road Singapore 579510,103.82811300000009,1.3766220000000544
50,Banting Traditional Cuisine,Handmade Noodle,Central,Self Pickup,,,,www.facebook.com/bantingtraditionalcuisine.com,85 Dawson Rd #01-02 Singapore 141085,103.80976200000003,1.2953160000000707
52,Bao Mei Chicken Rice,Chicken Rice,West,Self Pickup,,,93806584.0,,5 Dover Crescent #01-02,103.78263600000008,1.3040640000000394
55,Bearded Bella,"Western, Pasta",South,Delivery / Self Pickup,$30,,98800775.0,,8 Craig Road Singapore 089668,103.84285950000009,1.2776940000000536
56,Bedok Soya Bean Drink Stall,Soya Bean Drink,East,Self Pickup,,94206662,,,216 Bedok North Street 1 #01-10 Singapore 460133,103.93333650000005,1.3269780000000537
58,Bee Kia Seafood Restaurant,"Hor Fun, Zi Char",North,Self Pickup,,62548490,,,1 Thomson Road #01-326 Singapore 300001,103.84257150000008,1.3255920000000287
59,Beerthai House Restaurant,Thai Food,Central,Islandwide,Pls Enquire,84816370,,,5001 Beach Road #01-96 Singapore 199588,103.86517050000003,1.3027680000000714
60,belle-ville Pancake Cafe (Tanjong Pagar),Pancakes,South,Delivery / Self Pickup,$30 FOC delivery in Tanjong Pagar Area,67874389,,,100 Tras Street #01-14B Singapore 079027,103.84386750000004,1.2769740000000525
61,Bellton Patisserie,Cakes,East,Islandwide,Pls Enquire / Pickup @ Simei MRT,,91180989.0,www.belltonpatisserie.com,3015 Bedok North Street 5 Singapore 486350,103.94742600000006,1.3367520000000468
62,Big Boys Sizzling Hot Plate,Western,West,Islandwide,$30 / Pls Enquire,93837475,,,144 Upper Bukit Timah Road #04-25 Singapore 588177,103.77653850000007,1.3424130000000218
67,Birdie Num Num Gastrobar,Western,East,Delivery / Self Pickup,Pls Enquire,64492546,,,54 Jalan Kembangan Singapore 419119,103.91392800000006,1.322370000000035
68,Bistro 101,Western,East,Self Pickup,,87991382,91139593.0,,101 Eunos Avenue 3 #01-01/02 Singapore 409835,103.89858750000008,1.3200390000000652
70,BKK Bistro and Bar,"Thai, Boat Noodle",North,Delivery / Self Pickup,$25,,,https://www.fb.com/bkkbistrobar,"81 Lorong Chencharu, ORTO, Singapore 769198",103.82950350000004,1.4127840000000447
73,Bodhi Deli,Vegetarian,Central,Delivery / Self Pickup,Min 3 Dishes with $6 delivery fee,83395400,,,190 Middle Road #03-26A Fortune Centre Singapore 188979,103.85229150000004,1.3004100000000562
74,Bollywood Veggies,"Nasi Lemak, Curry",West,Delivery / Self Pickup,$50 FOC else $10 delivery fee,68985001,82469034.0,,100 Neo Tiew Road Singapore 719026,103.71675150000004,1.4183550000000196
75,Boon Kee Kway Teow Noodle,"Fishball Noodle, Laksa",East,Self Pickup,,93628578,,,92 Jalan Senang Singapore 418464,103.91646600000007,1.3263480000000527
78,Bowl Chap,Rice Bowl,West,Islandwide,FOC if order one day in advance,,91097929.0,,1 Fusionopolis Place Galaxis #01-25 Singapore 138522,103.78810350000003,1.2998610000000212
79,Box N Sticks,Japanese,Central,Delivery / Self Pickup,$100 FOC else $50 with $5 delivery fee,63417780,88031461.0,,28 Kandahar Street Singapore 198889,103.85969400000005,1.3021110000000249
80,Breadstory,Bread,West,Limited Delivery,Only Telok Blangah,97281273,97281375.0,,12 Telok Blangah Crescent #01-93 Singapore 090012,103.81951800000007,1.2771810000000414
81,Brew & Bar,Western,East,,Pls Enquire,63846733,90489164.0,,6 Jalan Pari Burong Singapore 488672,103.94803800000005,1.3334760000000756
82,Bugis Street Chuen Chuen Chicken Rice,Chicken Rice,Central,Delivery / Self Pickup,$50 FOC else $5 for min order of $20,,93847955.0,,411 Balestier Road #01-12 Balestier Market Singapore 329930,103.84917300000006,1.3255290000000741
84,Butterknife Folk,Ice Cream,Central,Delivery / Self Pickup,$60 FOC else $8 delivery fee,,,https://www.butterknifefolk.com/shop,107 North Bridge Road #02-02 Funan Singapore 179105,103.85024400000003,1.2912030000000527
85,Caffe Zeppin,"Western, Fusion",North,Delivery / Self Pickup,,62621367,,https://caffezeppin.oddle.me/,26 Sin Ming Lane #01-116,103.83395850000005,1.3594860000000608
86,Cajun on Wheels Plaza Singapura,Western,Central,Islandwide,$80 FOC,63419665,,https://cajunonwheels.oddle.me/en_SG/,68 Orchard Rd #03-92 Singapore 238839,103.84498350000007,1.3000320000000443
87,Candlenut,Peranakan,Central,Delivery / Self Pickup,$100 FOC,81210176,,,Block 17A Dempsey Road Singapore 249676,103.81022550000006,1.3056930000000762
88,Captain K Seafood Tower,"Korean, Seafood",Central,Delivery / Self Pickup,$100 FOC else $5.90 delivery fee,62555744,,https://www.captaink.sg/online-ordering,112 Middle Road #01-00A,103.85374050000007,1.2990780000000655
89,Carrot Cubes,Carrot Cake,North,Self Pickup,,97962036,,,527 Ang Mo Kio Avenue 10 #01-115 Singapore 560527,103.85445600000008,1.3727700000000596
91,CCK 302 FoodHouse,"Ngor Hiang, Fishball Noodle, Zi Char",West,Delivery / Self Pickup,$10,,96740015.0,,302 Choa Chu Kang Avenue 4 #01-719 Singapore 680302,103.74333750000005,1.3850190000000566
93,Centre Satay Beehoon,Satay Bee Hoon,North,Islandwide,Pls Enquire,68505058,,www.facebook.com/AMKSatayBeehoon,724 Ang Mo Kio Avenue 6 #01-12,103.84650900000008,1.3721760000000245
96,Char Grilled,"Chicken Wings, Satay",Central,Self Pickup,,81006792,,,166 Jalan Besar Food Centre #01-02 Singapore 208877,103.85689050000008,1.3073400000000674
97,Char Restaurants,"Sio Bak, Char Siew, Zi Char",Central,Islandwide,$50,,96613578.0,http://char.com.sg/,363 Jalan Besar Singapore 208994,103.85953650000005,1.3126590000000533
98,Chatterbox,Chicken Rice,Central,Islandwide,"$50 FOC to Orchard locations, $80 FOC IW",68316291,,https://shop-orchard.meritushotels.com/,Level 5 Chatterbox 333 Orchard Road Singapore 238867,103.83636600000006,1.3020570000000475
100,Cheval Cafe Bar & Bistro,Western,West,Delivery / Self Pickup,$30 / 2 hours in advance,91524459,,www.cheval.com.sg,2 Bukit Batok West Avenue 7 #01-9B Singapore 659003,103.74803550000007,1.3663170000000378
101,Cheval Chi Bao 赤宝,Zi Char,West,Delivery / Self Pickup,$30 / 2 hours in advance,91524459,,www.chibao.com.sg,2 Bukit Batok West Avenue 7 #01-9B Singapore 659003,103.74803550000007,1.3663170000000378
103,Chico Loco,"Healthy Bowls, Burgers",South,Islandwide,FOC if within 1.5km / > $80 - $10 delivery fee else $18,,97387828.0,,102 Amoy Street Singapore 06992,103.84730100000007,1.2816720000000714
107,Chin Lee Restaurant,"Teochew Cuisine, Zi Char",East,Delivery / Self Pickup,Pls Enquire,64495454,,,115 Bedok North Road #01-285 Singapore 460115,103.93702650000006,1.3315500000000497
108,Chin Sin Huan 振新园,"Buns, Fan Choy",Central,Islandwide,No min order $10 delivery fee for orders < $50,,97812891.0,,285 Jalan Besar Singapore 208948,103.85862750000007,1.3108500000000731
112,Chong Qing Grilled Fish - Serangoon,Grilled Fish,North,Delivery / Self Pickup,Pls Enquire,67026680,,,2 Maju Avenue,103.86574650000006,1.3646250000000464
114,Choon Seng Teochew Porridge,Porridge,Central,Delivery / Self Pickup,Pls Enquire,62930706,97282626.0,,43 Cambridge Road Singapore 210043,103.84933050000006,1.3154850000000238
115,Chop Chop Biryani & Meats,Nasi Briyani,South,Delivery / Self Pickup,$15 / Pls Enquire,,81180657.0,,7 Maxwell Road #02-101 Amoy Street Food Centre Singapore 069111,103.84660800000006,1.279215000000022
116,Chuan Chuan Le,"Skewers, Mala",Central,Delivery / Self Pickup,Pls Enquire,96485355,,,64 Horne Road Singapore 209072,103.86125550000008,1.3102650000000722
120,Citrus By The Pool*,"Western, Fusion, Halal",North,Delivery / Self Pickup,$35 FOC for Woodlands and vicinity areas,63666581,87833372.0,,3 Woodlands Street 13 Singapore 738600,103.77922050000006,1.4347620000000347
123,Club July @ Stagmont,Western,West,Self Pickup,,63633381,,,5 Stagmont Ring Singapore 688241,103.75344450000006,1.3947120000000268
124,Cluck Cluck,Western,Central,Islandwide,Pls Enquire,91982673,,,80 Bencoolen Street NAFA Campus 1 #01-15 Singapore 189655,103.85146350000008,1.2998790000000326
126,Comida Mexicana,Mexican,,Delivery / Self Pickup,Pls Enquire,64408030,92222491.0,https://comidamexicana.oddle.me/,404 East Coast Singapore 428998,103.91214150000008,1.3087350000000697
127,COMO Cuisine,"Western, Fusion",Central,Delivery / Self Pickup,$100 FOC,81210176,,,Block 18A Dempsey Road Singapore 249677,103.81081050000006,1.3057020000000534
128,Cookyn Inc,Western,Central,Islandwide,Pls Enquire,,,www.cookyn-inc.com/cooking-lifeskills,31 Ah Hood Road # 01-06 Singapore 329979,103.84879050000006,1.328877000000034
129,Cosmo Dining,Western,West,Self Pickup,,,,http://cosmodining.com.sg/wp-content/uploads/2020/04/cosmo-restaurant-menu.pdf,50 Nanyang View Singapore 639667,103.68805950000007,1.3505310000000463
130,Coucou Restaurant,Western,South,Islandwide,$150 FOC else min $50 with $5 delivery fee,62260060⁣⁣,97313788.0,coucou.wallet.sg,9 Craig Road Singapore 089669,103.84280550000005,1.277712000000065
131,Craft’B,Rice Bowl,South,Delivery / Self Pickup,,96809392,,,7 Maxwell Road #02-115 Singapore 069111,103.84660800000006,1.279215000000022
132,Crystal Jade Hong Kong Kitchen,"Bento, Claypot",Central,Delivery / Self Pickup,,67382911,,,1 Kim Seng Promenade #03-127,103.83181200000007,1.2940470000000346
133,Curious Palette,"Western, Cafe, Burgers",Central,Delivery / Self Pickup,E-mail to Enquire,,,,64 Prinsep Street Singapore 188667,103.85004600000008,1.299690000000055
134,Curry Times (Changi Airport)*,"Curry Chicken, Nasi Lemak, Laksa Goreng",East,Self Pickup,,64478068,,,65 Airport Blvd #B2-51 Changi Airport Terminal 3 Singapore 819663,103.98516750000005,1.354374000000064
135,Curry Times (Jurong)*,"Curry Chicken, Nasi Lemak, Laksa Goreng",West,Self Pickup,,63699609,,,3 Gateway Drive #02-08 Singapore 608532,103.74265800000006,1.3341330000000653
136,Curry Times (Novena)*,"Curry Chicken, Nasi Lemak, Laksa Goreng",North,Self Pickup,,63543206,,,238 Thomson Road #02-33/34 Singapore 307683,103.84386300000006,1.3200210000000538
138,d’Star Bistro,"Western, Healthy Bowl",East,Delivery / Self Pickup,Email to Enquire,,,,8 Somapah Road #01-102 SUTD Singapore 487372,103.96281150000004,1.3411530000000198
139,Da Ji Hainanese Chicken Rice,Chicken Rice,Central,Self Pickup,,,,,75 Lor 5 Toa Payoh #01-31 Singapore 310075,103.85295750000006,1.3360230000000684
140,Da Shi Jia Big Prawn Mee,Prawn Noodle,,Islandwide,$60,67321085,91378292.0,,89 Killiney Rd Singapore 239534,103.83914700000008,1.298430000000053
141,Dessert Monster,"Dessert, Soya Bean Curd",Central,Self Pickup,,,,,210 Lorong 8 Toa Payoh Market #01-26 Singapore 310210,103.85439750000006,1.3402620000000525
142,Different Taste Cafe & Restaurant,"Fish Head Curry, Penang Kway Teow",East,Limited Delivery,"$80 (FOC), $40 with $5 delivery fee",93297111,,,111 Frankel Avenue Road Singapore 458229,103.91953500000005,1.314369000000056
143,Dim Sum Haus*,Dim Sum,Central,Islandwide,$20,,81334830.0,http://order.dimsumhaus.com.sg,57 Jalan Besar Singapore 208809,103.85484750000006,1.3050360000000296
146,Earlybird,Western,West,Islandwide,$50 with $10 delivery fee / Pls Enquire,97886856,,https://www.facebook.com/earlybirdcafesingapore,21 Lorong Kilat # 01-02 Singapore 598123,103.77324900000008,1.3408020000000533
148,Easy Chatuchak Beef Noodles,"Thai Food, Beef Noodle",East,Delivery / Self Pickup,$35 FOC else $5 delivery,97716227,,,10 Eunos Road 8 #02-138 Singapore 408600,103.89450600000004,1.3189590000000635
150,Eat First,Zi Char,East,Self Pickup,,64438434,,,891 East Coast Road Singapore 459094,103.92399900000004,1.3128840000000537
152,Elemen Classic,Vegetarian,Central,Delivery / Self Pickup,1 hours in advance / Pls Enquire,84886372,,,1 Kim Seng Promenade #01-122 Singapore 237994,103.83181200000007,1.2940470000000346
154,Empress Porridge,"Porridge, Pork Trotter Bee Hoon",West,Delivery / Self Pickup,$60,,94568828.0,,1 Fusionopolis Place #01-15 Galaxis Singapore 138632,103.78810350000003,1.2998610000000212
155,Empress Porridge,"Porridge, Curry Rice",West,Delivery / Self Pickup,Pls Enquire,94568828,,www.empressporridge.com,1 Fusionopolis Place #01-15 Singapore 138632,103.78810350000003,1.2998610000000212
156,En Sushi,Japanese,Central,Delivery / Self Pickup,$100 FOC else $5.90 delivery fee,62598548,,https://www.captaink.sg/online-ordering,112 Middle Road #01-00B,103.85374050000007,1.2990780000000655
157,Enak,Muslim Food,South,Delivery / Self Pickup,,96666909,91516161.0,https://enak.oddle.me/en_SG/,201 Henderson Road #03-18 Apex @Henderson Singapore 159545,103.82041350000009,1.2823920000000726
158,Encik Heng Cafe,Chicken Rice,West,Islandwide,Pls Enquire,98346066,,,2 Venture Drive #02-40,103.74457500000005,1.3301550000000475
159,Eng Ho Fried Hokkien Mee,Hokkien Mee,North,Self Pickup,,98156826,,,409 Ang Mo Kio Avenue 10 #01-34 Singapore 560409,103.85528850000009,1.3626540000000205
160,Eng Kee Chicken Wings,Fried Chicken Wings,West,Delivery / Self Pickup,,92339330,96367382.0,www.engkeechickenwings.getz.co,117 Commonwealth Drive,103.80027150000006,1.3065930000000208
161,Enjoy Eating House and Bar,Thai Food,Central,Delivery / Self Pickup,$70 FOC else Pls Enquire,92991601,,,383 Jalan Besar Singapore 209001,103.85969850000004,1.3132260000000429
162,Esarn Thai Corner,Thai Food,North,Islandwide,Pls Enquire / $5 islandwide,65544174,91770316.0,,9 Thomson Ridge Singapore 574637,103.83379200000007,1.352907000000073
163,Famous JB101,"Zi Char, Curry Fish Head",West,Islandwide,$50 FOC,92233707,,,45 Science Park Road #01-03/04 Singapore 117407,103.78285650000004,1.2879630000000475
164,Fancy Delight,Cookies,,Delivery / Self Pickup,Pls Enquire,,98808074.0,https://www.fancydelight.com.sg/shop/,17 Lorong Kilat #01-04,103.77421200000003,1.340829000000042
165,Farmart 阿诺 BBQ,"BBQ Seafood, Otah",West,Delivery / Self Pickup,,90222870,,,101 Yung Sheng Road Singapore 618497,103.72199850000004,1.334367000000043
166,Fat Belly - Alternative Steakhouse,"Peranakan, Set Menu",West,Islandwide,"Fat Belly set menu 1.Pickup and delivery will be available from 6-9pm daily 2. There is no lead time but we would recommend placing an order in advance to secure your steaks 3. No minimum order. Delivery will be $5 islandwide. If you order 2 or more sets then delivery will be free. If dishes are ordered ala carte, delivery will be $15 islandwide. Peranakan menu We have a new menu every week going at $55 for 2 pax, $98 for 4 pax 1. Pick up and delivery will be available from Thursday - Sunday (4pm - 8pm). Last order for same day pickup or delivery will be at 6pm. 2. It would be best to order in advance to ensure their secure your order. 3. Orders come in 2 pax and 4 pax and you can order any quantity of that. Delivery will be $5 islandwide.",83992139,,,10 Jalan Serene #01-04 Singapore 258748,103.81375350000008,1.3224330000000464
167,Fatty Weng Kitchen,Zi Char,West,Call to Enquire,$50,67771272,,,273 Bukit Batok East Ave 4,103.75758000000008,1.3484250000000202
169,Fisher's Tavern Seafood*,"Zi Char, Halal",North,Delivery / Self Pickup,Pls Enquire,62512686,97867796.0,www.fisherstavern.com.sg,6 Yishun Industrial Street 1 #01-01/02 Singapore 768090,103.84366500000004,1.4366790000000265
170,Five Star Kampung Chicken Rice (Bukit Timah),Chicken Rice,West,Delivery / Self Pickup,,64663000,86687555.0,www.fivestarchickenrice.com/delivery,7 Cheong Chin Nam Road,103.77523800000006,1.342629000000045
173,Flavours By Saute,Vegetarian,Central,Delivery / Self Pickup,Pls Enquire,,98308582.0,,107 North Bridge Road #B1-30 Singapore 179105,103.84920900000009,1.290042000000028
175,Food Anatomy,"Protein Bowl, Rice Bowl",West,Islandwide,Pls Enquire,,93958632.0,,73A Ayer Rajah Crescent #01-31 Singapore 139957,103.78741950000006,1.2972780000000625
176,Foodelicia (Bukit Batok),Western,West,Delivery / Self Pickup,,,,,451 Bukit Batok West Avenue 6 Singapore 650451,103.74394950000004,1.3530420000000731
182,Fu Shi,Wanton Noodle,East,Islandwide,Pls Enquire,,91131752.0,https://www.jotform.com/shidefu/shi-de-fu/,69 Geylang Bahru # 01-65 Singapore 330069,103.87000350000005,1.3214610000000562
183,Full of Luck Restaurant,Zi Char,West,Islandwide,$100 (FOC) else $12 delivery fee,62086845,,,243 Holland Avenue Singapore 278977,103.79557800000003,1.311057000000062
184,Fullstop,Rice Bowl,Central,Delivery / Self Pickup,$88 FOC else $30 with delivery fee,,96502949.0,,107 North Bridge Road #01-20 Singapore 179105,103.84920900000009,1.290042000000028
186,FuZhou Ban Mian,"Ban Mian, Mee Hoon Kueh",Central,Self Pickup,,93668510,,,186 Toa Payoh Central #01-402 Singapore 310186,103.85021250000005,1.3326570000000402
188,GaZette,Western,South,Delivery / Self Pickup,Pls Enquire,91150538,,,165 Telok Ayer Street,103.84752600000007,1.2801960000000463
189,Geylang 29 Fried Hokkien Mee,"Fried Hokkien Mee, Satay",East,Self Pickup,,87679314,,,East Coast Lagoon Food Village #01-032 Singapore 468960,103.93485300000003,1.3067910000000325
191,Geylang Serai Satay,Satay,South,Delivery / Self Pickup,$100 FOC else $6-$10,,92700323.0,,Marina Garden Drive Satay by the Bay,103.86432000000008,1.281816000000049
192,Ghim Moh Chwee Kueh,Chwee Kueh,West,Self Pickup,,91766850,,,20 Ghim Moh Road #01-54 Singapore 270020,103.78822950000006,1.3109940000000506
193,Gik Gik Heng Prawn Mee Lor Mee,"Prawn Mee, Lor Mee",North,Delivery / Self Pickup,,,,,527 Ang Mo Kio Avenue 10 #01-129,103.82936850000004,1.38013200000006
195,Godmama,Peranakan,Central,Islandwide,$100 FOC else $10 delivery fee with no min,81891398,,,107 North Bridge Road #04-07 Singapore 179097,103.86370800000009,1.3043340000000399
196,Good Bites,Western,North,Delivery / Self Pickup,$15 with $12 delivery fee / Pls Enquire,69700233,87833372.0,https://www.goodbites.com.sg/order/,5 Bishan Street 14 #03-01 Singapore 579783,103.85122500000006,1.3554000000000315
197,Good Chance Restaurant / Good Chance Catering,"Popiah, Zi Char",Central,Islandwide,$50,96229445,88236363.0,www.goodchance.com.sg,1 Jalan Berseh #01-15,103.85724600000003,1.3075920000000565
198,GoodYear Seafood Restaurant,"Bak Kut Teh, Zi Char",East,Delivery / Self Pickup,"$80 FOC, Min $15, Pls Enquire",,96425800.0,,15 Tampines Avenue Singapore 529788,103.92658200000005,1.3664790000000266
199,Goro Japanese Cuisine,Japanese,West,Delivery / Self Pickup,,91820553,,,43 Holland Dr #01-49 Singapore 270043,103.79289600000004,1.3074300000000676
200,Got Luck Cafe,"Kueh, Nasi Lemak, Ayam Penyet",Central,Self Pickup,,81687536,,www.gotluckcafe.com/,56 Kandahar Street,103.86005400000005,1.3016250000000582
201,Grandma’s Place,Zichar,North,Delivery / Self Pickup,,82828807,,,8 Admiralty Street #01-05 Admirax Singapore 757438,103.81543650000003,1.4624010000000567
203,Greenwood Fish Market (Bukit Timah),"Fish & Chips, Oysters, Western",West,Islandwide,$160 FOC / Visit website for info,,,,"34 Greenwood Avenue Singapore, 289236",103.80649050000005,1.3318290000000275
204,Grill Ninety Nine,Western,Central,Delivery / Self Pickup,$50 FOC,97312902,,,142 Arab Street Singapore 199828,103.85808750000007,1.3026150000000598
205,Grub,Western,North,Islandwide,$50 FOC else $10 delivery fee,,,www.grub.com.sg/delivery,510 Ang Mo Kio Ave 1 (Bishan - Ang Mo Kio Park) Singapore 569983,103.83562800000004,1.364985000000047
206,Guang Xing Original Fish Head Bee Hoon,"Fish Soup, Fish Head Bee Hoon",East,Self Pickup,,91869313,,,Village Food Centre Stall #01-31 Singapore 500002,103.90802400000007,1.3107870000000617
208,Hai’s Roasted Meat Supplier,"Sio Bak, Char Siew, Roast Duck",North,Delivery / Self Pickup,"< $50 with $10 delivery fee, else $5",91191833,,,15 Woodlands Loop #03-31/32 Singapore 738322,103.80908700000003,1.448568000000023
210,Haji Osman Nasi Ayam,Nasi Ayam,North,Self Pickup,,,98399440.0,,6 Yishun Industrial Street 1,103.84366500000004,1.4366790000000265
212,Happy Joy Restaurant,Chinese,,Delivery / Self Pickup,Pls Enquire,62518135,87891076.0,,"36 Newton Road, Hotel Royal #02-01 Singapore 556747",103.84195950000009,1.3168170000000714
213,HarriAnns Nonya Table (Aljunied),"Kueh, Nonya Laksa, Curry Chicken",,Islandwide,Pls Enquire,97923523,91385385.0,,1007 Aljunied Avenue 4 #01-05/07 Singapore 389908,103.88907900000004,1.3214250000000334
214,HarriAnns Nonya Table (Bugis Junction),"Kueh, Nonya Laksa, Curry Chicken",,Islandwide,Pls Enquire,97923523,91385385.0,,230 Victoria Street #01-01A Singapore 188024,103.85605800000008,1.2999690000000328
215,HarriAnns Nonya Table (Suntec City),"Kueh, Nonya Laksa, Curry Chicken",,Islandwide,Pls Enquire,97923523,91385385.0,,3 Temasek Boulevard #01-416A Suntec City Tower 5 Singapore 038983,103.85930700000006,1.2950010000000702
218,Herbal Brew,Double Boiled Soup,West,Self Pickup,,91766850,90042561.0,,Blk 20 Ghim Moh Road #01-53 Singapore 270020,103.78822950000006,1.3109940000000506
219,Hock Lam Beef Noodle,Beef Noodle,South,Self Pickup,,65350084,,,6 North Canal Road,103.84904700000004,1.2860730000000444
220,Hoe Hokkien Mee,Hokkien Mee,Central,Delivery / Self Pickup,,90991178,,,861 North Bridge Road #01-93 Singapore 198783,103.86391050000009,1.3056300000000647
221,Hoe Kee Chicken Rice & Porridge,"Chicken Rice, Char Siew",South,Self Pickup,,,96692544.0,,79 Telok Blangah Drive #01-31 Singapore 100079,103.80762900000008,1.2733650000000694
222,HoHo Chimek,"Korean, Chicken Wings",East,Self Pickup,,67332828,92398993.0,,430 Upper Changi Road East Village #01-45 Singapore 487048,103.94620200000008,1.3317750000000501
225,Home Taste Chicken Rice,Chicken Rice,North,Ang Mo Kio,Pls Enquire,97518127,,,108 Ang Mo Kio Avenue 4 #01-74,103.83820650000007,1.3709610000000225
226,Home Taste 家味,"Chicken Rice, Porridge",North,Islandwide,"Within AMK FOC, others min $35",97518127,,,108 Ang Mo Kio Ave 4 #01-74 Singapore 560108,103.83820650000007,1.3709610000000225
227,Homeground Grill and Bar,Western,North,Delivery / Self Pickup,$50,,,,1088 Serangoon Road Singapore 328188,103.86499500000008,1.3236480000000483
228,Hon Ni Kitchen,Dim Sum,East,Call to Enquire,$60 (FOC delivery) else $5 delivery fee,93399183,,,216 Bedok North Street 1,103.93333650000005,1.3269780000000537
229,Hong Ho Phang Hong Kong Tim Sum (Bukit Batok),"Dim Sum, Soon Kueh, Siew Mai",West,Self Pickup,,97237583,,,Blk 150 Bukit Batok Street 11 #01-224 Singapore 650150,103.74367050000006,1.3487850000000208
231,Hong Kong Street Family Restaurant,Zi Char,Central,Self Pickup,,62523132,,https://www.facebook.com/hkstreetfam/,273 Thomson Road # 01-01 Singapore 307644,103.84198650000008,1.3205430000000433
233,Hong Qin Fish & Duck Porridge,"Fish Soup, Fish Porridge",East,Self Pickup,,90614988,82347917.0,,134 Geylang East Avenue 1,103.88601000000006,1.315998000000036
234,Hong Yun Fish Soup,"Fish Soup, Carrot Cake",Central,Self Pickup,,81338209,90601806.0,,17 Upper Boon Keng Rd #01-53,103.87161900000007,1.3150260000000458
235,Hopstation,"Western, Craft Beer",Central,Delivery / Self Pickup,Pls Enquire,92324675,,,18 Cross Street #01-108 Cross Street Exchange Singapore 048423,103.84687800000006,1.2835170000000744
236,Hot Plate Western Food,Western,South,Self Pickup,,,93820954.0,,30 Seng Poh Road #02-54 Singapore 168898,103.83241950000007,1.2846870000000195
237,Hotpot Dynasty,Zi Char,North,Self Pickup,,83123483,,,50 Serangoon North Avenue 4 #01-30,103.87582200000008,1.3756860000000302
238,Hougang Nonya Kueh,Kueh,East,Islandwide,Pls Enquire,,81000880.0,,3020 Ubi Avenue 2 #02-113,103.89357000000007,1.3280220000000327
241,Huan Xi Cooked Food,"Steamed Fish, Zi Char",South,Self Pickup,,92271518,,,Blk 335 Smith Street #02-46/02-47 Chinatown Hawker Complex,103.84319250000004,1.282275000000027
242,Huay Kwang Wanton Mee,Wanton Noodle,East,Self Pickup,,,93831597.0,,3021 Ubi Avenue 2,103.89480750000007,1.328499000000022
244,Hup Seng Huat Seafood (Yishun),"Seafood, Zi Char",North,Delivery / Self Pickup,"Limited to Yishun/Khatib, Pls Enquire",62573944,96403618.0,,630 Yishun Street 61 Singapore 760630,103.83759900000007,1.4178870000000643
245,I Want My Noodle,Minced Meat Noodle,Central,Self Pickup,,,87261151.0,,1 Scotts Road #03-14/15,103.83360750000008,1.3072680000000219
248,Ikan Bakar BBQ,"BBQ Stingray, Sotong",West,Self Pickup,,83129661,,,163A Gangsa Road,103.76435250000009,1.376937000000055
250,Inspirit House,"Bento, Western",North-East,,"$40 FOC, $20 FOC to SK, PG on bentos",,96458881.0,,3 Punggol Point Road #01-05 The Punggol Settlement Singapore 828694,103.91220000000004,1.4208840000000578
251,Istimewa Kitchen*,"Mutton Rendang, Asam Pedas, Muslim",East,Self Pickup,Pls Enquire,94556728,,,3014 Bedok industrial park E Singapore 489980,103.95028800000006,1.335456000000022
253,Ji Xiang Seafood,Zi Char,East,Islandwide,FOC for $40 Set Menu,,93837810.0,,21 Old Airport Road Singapore 390021,103.88441250000005,1.3075830000000224
257,Jiao Cai Seafood (Woodlands),"Grilled Seafood, Zi Char",North,Limited Delivery,Pls Enquire,82821253,,,306 Woodlands Street 31 #01-19,103.77464400000008,1.4298930000000496
259,Jin Ji Teochew Braised Duck,Braised Duck Rice,South,Delivery / Self Pickup,Pls Enquire,90189052,,,335 Smith Street #02-156,103.84319250000004,1.282275000000027
262,Joo Bar,Korean Food,Central,Delivery / Self Pickup,$80 FOC else $15 delivery fee,,,http://joo-bar.com/shop/,5 Tan Quee Lan Street,103.85685450000005,1.2980880000000639
263,Jun Korean BBQ & Beer,Korean,West,Islandwide,$50 FOC else $9 delivery fee,67388887,98429033.0,https://www.junbbq.sg/delivery-takeout,20 Biopolis Way #01-01 Centros Singapore 138668,103.79186100000004,1.3037850000000617
264,Jun Yuan House of Fish,Fish Soup,East,Limited Delivery,Pls Enquire,93211866,,,51 Old Airport Road #01-69,103.88580750000006,1.3082490000000462
265,JY Lam Eating House,"Ban Mian, Mee Hoon Kuay",West,Self Pickup,,91467608,88768953.0,,2 Venture Drive #02-45 Vision Exchange Singapore 608526,103.74457500000005,1.3301550000000475
266,Ka-Soh,Fish Soup,South,Call to Enquire,$50,64736686,,https://www.ka-soh.com.sg,2 College Road,103.83595200000008,1.282239000000061
267,Kai Huat Roasted Supply,"Roast Duck, Char Siew, Sio Bak",East,,$60 FOC else $10 delivery fee,96322894,,,3020 Ubi Ave 2 #03-125 Singapore 408896,103.89357000000007,1.3280220000000327
270,Kamikaze Asian Tapas Bar,"Skewers, Tapas",North,Delivery / Self Pickup,$25,,,https://www.fb.com/kamikazeasiantapasbar,"81 Lorong Chencharu, ORTO, Singapore 769198",103.82950350000004,1.4127840000000447
271,KARA Cafe and Dessert Bar,"Japanese, Fusion",West,Islandwide,Pls Enquire,97964206,,,617 Bukit Timah Road Singapore 269718,103.80931200000003,1.3244040000000723
274,Keng Eng Kee Seafood,"Zi Char, Burger",West,Islandwide,$50,62721038,,https://order.kek.com.sg,124 Bukit Merah Lane 1 #01-136 Singapore 150124,103.80353850000006,1.2858210000000554
277,Kim's Place Seafood,"Seafood, Zi Char",East,Islandwide,$50,67421119,,http://www.kimsplaceseafood.com,45 Joo Chiat Place Singapore 427769,103.90332600000005,1.3127670000000649
278,Kin Moo,Thai Food,Central,Delivery / Self Pickup,$80 FOC else $15 delivery fee,,,http://kin-moo.com/takeaways/,2 Tan Quee Lan Street #01-02 Singapore 188091,103.85693550000008,1.2979980000000637
280,Kok Sen Restaurant,Zi Char,South,Self Pickup,,62232005,96984119.0,,30 Keong Saik Road Singapore 089137,103.84173450000009,1.280232000000069
281,Kor Kai,Thai Food,North,Delivery / Self Pickup,,65094220,88698242.0,https://tinyurl.com/KorKai-TakeawayMenu,1 Maju Avenue #B1-25 Singapore 556679,103.86516600000004,1.365192000000036
283,Kucina Italian Restaurant,"Italian, Gnocchi, Tortellini",East,Islandwide,$50 / Pls Enquire,91729662,,https://www.kucinaitalian.com/,11 Tanjong Katong Road # B1-09/10 Singapore 437157,103.89472650000005,1.3146030000000337
284,Kueh Ho Jiak,Kueh,,Islandwide,,,,http://www.kuehhojiak.com,6 Tanjong Pagar Plaza #02-20 Singapore 081006,103.84313400000008,1.2766860000000406
285,Kwee Zeen,"Chinese, Fusion",South,Self Pickup,,67088310,,www.sofitel-singapore-sentosa.com,2 Bukit Manis Road Sentosa Island Singapore 099891,103.82749650000005,1.2465630000000374
286,Kwong Wai Cantonese Cuisine,Zi Char,South,Self Pickup,,90039117,,,30 Seng Poh Road #02-52 Singapore 168898,103.83241950000007,1.2846870000000195
287,Kyuubei Izakaya,Japanese,East,Delivery / Self Pickup,Pls Enquire,65090909,91373737.0,,1 Netheravon Rd Singapore 508502,103.98576600000007,1.3905630000000428
289,Lau Fu Zi Char Kway Teow,Fried Kway Teow,East,Islandwide,"Within 5km, $6 delivery fee, else $10",,96178785.0,,51 Old Airport Road #01-12 Singapore 390051,103.88580750000006,1.3082490000000462
290,Lau’s Mee Siam n Mee Rebus,"Mee Siam, Mee Rebus",East,Self Pickup,,94206662,,,216 Bedok North Street 1 #01-06 Singapore 460133,103.93333650000005,1.3269780000000537
291,Le Chasseur,Claypot Rice,East,Self Pickup,,63377677,91440322.0,,27 Eunos Road 2,103.89948300000003,1.3207500000000323
292,Le Le Pot (East Coast),Steamboat,East,Self Pickup,,63488597,,,382 East Coast Road Singapore 428987,103.91142600000006,1.308537000000058
293,Le Le Pot (Tiong Bahru),Steamboat,South,Self Pickup,,62229442,,,58 Seng Poh Road #01-23 Singapore 160058,103.83297750000008,1.2846240000000648
294,Leaf Corner,"Vegetarian, Nasi Lemak",North,Limited Delivery,$20 with $5 delivery fee,,83119831.0,,5 Jalan Legundi Singapore 759269,103.82370750000007,1.4413050000000567
296,Lee Do Restaurant,"Bento, Fuzhou Dishes",East,Delivery / Self Pickup,,91189196,,,61 Ubi Avenue 2 #01-13 Singapore 408898,103.90124700000007,1.3315500000000497
297,Legendary Bak Kut Teh @ Rangoon,Bak Kut Teh,Central,Delivery / Self Pickup,$60 FOC,,96450125.0,,154 Rangoon road Singapore 218431,103.85345250000006,1.316250000000025
298,Lek Chew Satay & Rojak,"Satay, Rojak",Central,Self Pickup,,90286207,,,124 Toa Payoh Lor 1 #01-459 Singapore 310124,103.84462800000006,1.3386510000000271
299,Leng Kee Fish Soup,Fish Soup,West,Self Pickup,,91832656,,,51 Upper Bukit Timah Road #02-192 Singapore 588172,103.77600750000005,1.3394520000000512
300,Lian Seng Fried Kway Tiao,Fried Kway Teow,West,Self Pickup,,97455047,,,#02-172 Bukit Timah Market & Food Centre Singapore 588215,103.76451000000009,1.3132800000000202
302,Lian Soon Huat Seafood (Bukit Panjang),Zi Char,West,Delivery / Self Pickup,,92269000,,www.liansoonhuatseafood.getz.co,259 Bukit Panjang Ring Road Singapore 671259,103.77331200000003,1.3770540000000437
303,Lian Soon Huat Seafood (Yishun),Zi Char,North,Delivery / Self Pickup,,97955102,,www.liansoonhuatseafood.getz.co,417 Yishun Avenue 11 Singapore 760417,103.84632900000008,1.4243850000000293
305,Lighthouse Bistro,"Western, Fusion, Pasta",Central,Delivery / Self Pickup,Pls Enquire,63901699,,www.lighthouse-sg.com,75 Jellicoe Road #01-01 Wavelink Building Singapore 208738,103.86267750000007,1.308573000000024
306,Lin Lin Vegetarian Delight,Vegetarian,East,Self Pickup,,62427010,97803474.0,,412 Bedok North Avenue 2 #01-114 Singapore 460412,103.93109100000004,1.3292910000000688
307,Ling Ji Handmade Yong Tau Foo,Yong Tau Foo,East,Self Pickup,,98604250,,https://www.facebook.com/lingjiyongtaufoo/,63 Kallang Bahru Singapore 330063,103.86832050000004,1.3210020000000213
308,Lion City Delicacies,"Claypot, Zi Char",East,Islandwide,$150 FOC else $10 delivery fee / Pls Enquire,62428283,96393233.0,,389 Changi Road Singapore 419838,103.91037300000005,1.3189140000000634
309,Little Bowl,Rice Bowl,Central,Delivery / Self Pickup,Pls Enquire,,81398218.0,,5 Straits View Marina One The Heart #B2-34 Singapore 018925,103.85293950000005,1.2773070000000644
310,Little Fresh Seafood Soup,"Seafood Soup, Fish Soup",West,Delivery / Self Pickup,"$50 FOC, $20 FOC if west area",,90014651.0,,8 Boon Lay Way #01-30,103.75357050000008,1.3276440000000207
311,Lombardos Singapore,"Burger, Pizza",South,Delivery / Self Pickup,,,,http://www.lombardos.sg,15 Duxton Road Singapore 089481,103.84341300000006,1.2797730000000342
313,Lu Heng Kee Hokkien Mee,"Hokkien Mee, Carrot Cake",West,Self Pickup,,91544117,,,959 Jurong West Street 92 Singapore 640959,103.69075500000008,1.3414770000000544
314,Lucha Loco Mexican Restaurant,"Tacos, Burritos, Margaritas",South,Islandwide,FOC if within 1.5km / > $80 - $10 delivery fee else $18,,87981035.0,,15 Duxton Hill Singapore 089598,103.84258950000009,1.2787830000000326
315,Lucid,"Cafe, Cakes, Coffee",Central,Self Pickup,Pls Enquire,,81149768.0,,38 Hamilton Road,103.86150300000008,1.3114800000000741
316,Lucky Lucky Catering & Restaurant,"Zi Char, Bee Hoon",Central,Delivery / Self Pickup,Delivery to CBD areas / Chinatown only,63232853,,http://www.luckyluckycatering.com/lunch-menu,41 Mosque Street,103.84490250000005,1.2838950000000295
318,Lye Heng Food Supplies*,"Curry Chicken, Assam Fish",North,Islandwide,Pls Enquire,89331844,,,"15 Woodlands Loop, # 04-22, Singapore 738322",103.80908700000003,1.448568000000023
319,Makansutra Gluttons Bay,"Satay, Mee Goreng, Char Kway Teow",South,Islandwide,Pls Enquire,86158420,,,8 Raffles Avenue #01-15 Singapore 039802,103.85653050000008,1.2892950000000383
321,Manna Korean Restaurant (Plaza Singapura),Korean,Central,Delivery / Self Pickup,,62277425,86794891.0,www.facebook.com/mannakorea.sg,68 Orchard Road #B2-22 Singapore 238839,103.84498350000007,1.3000320000000443
322,Manna Korean Restaurant (Telok Ayer),Korean,South,Delivery / Self Pickup,,62277425,86794891.0,www.facebook.com/mannakorea.sg,101-109 Telok Ayer Street Singapore 068574,103.84846200000004,1.2817800000000261
324,MARUKYU Japanese Dining,"Japanese, Bento",South,Self Pickup,,97360574,,,116 Telok Ayer Street,103.84816950000004,1.2820410000000493
327,Meat & Greet,"Western, Fusion",South,Delivery / Self Pickup,Pls Enquire,93622462,,https://www.instagram.com/meatandgreetsg/,102 Henderson Road Singapore 159562,103.82157900000004,1.2903660000000627
328,Meat n 'Chill,"Western, Steak, Ribs",West,Islandwide,$70 FOC / Pls Enquire,62197460,88124455.0,www.meatnchill.com,805 Bukit Timah Road #01-04 Singapore 279883,103.79500200000007,1.331433000000061
329,MediumRare by Saveur,"Western, Steak",East,Self Pickup,,67891121,,,2 Tampines Central 5 #01-35 Singapore 529509,103.94378550000005,1.352358000000038
330,Meet Paul,Western,South,Self Pickup,,,94566687.0,,1 Tanjong Pagar Plaza #02-04 Singapore 082001,103.84241850000006,1.275615000000073
331,Mellben Legend Seafood,"Seafood, Zi Char",East,Delivery / Self Pickup,,,83110435.0,,440 Pasir Ris Drive 4 #01-13 Singapore 510440,103.95869850000008,1.3690080000000648
332,Meng Kee,"Fried Oyster, Satay Bee Hoon",Central,Delivery / Self Pickup,$50 FOC / $20 with delivery fee of $3,83481926,,,29 Tai Thong Crescent,103.86982800000004,1.3290570000000343
336,Ming Qi Fried Hokkien Prawn Noodle,Hokkien Prawn Noodle,North,Self Pickup,,81982653,92265996.0,,925 Yishun Central 1 Singapore 760925,103.83728850000006,1.4278680000000463
337,Ming Wu Xiang Xia Bing,"Wu Xiang, Prawn Fritters",Central,Self Pickup,,,,,32 New Market Road #01-1118,103.84258050000005,1.2848580000000425
339,MIZ Japanese Restaurant,Japanese,South,Self Pickup,,,83993441.0,,17 Kampong Bahru Road Singapore 169347,103.83666750000003,1.277127000000064
340,Modern Asian Desserts,"Desserts, Bubble Tea",North,Delivery / Self Pickup,$15,,,https://www.fb.com/modernasiandesserts,"81 Lorong Chencharu, ORTO, Singapore 769198",103.82950350000004,1.4127840000000447
341,Momma Kong’s,"Seafood, Zi char",Central,Islandwide,Pls Enquire,62252722,,www.mommakongs.com,34 Mosque Street Singapore 059512,103.84523550000006,1.2836970000000747
344,Mr Bready,"Bread, Kueh",West,Delivery / Self Pickup,,82336855,,https://www.facebook.com/mrbreadysg,159 Mei Chin Road # 02-31,103.80290400000007,1.2932370000000333
345,Mr Fish,"Fish Soup, Hor Fun",South,Self Pickup,,90297508,,,335 Smith Street #02-073,103.84319250000004,1.282275000000027
347,Multi Food Supply,"Mala Hot Pot, Yakitori",Central,Delivery / Self Pickup,$30 / Pls Enquire,90615461,,,166 Jalan Besar #B1-03 Berseh Food Centre Singapore 208877,103.85689050000008,1.3073400000000674
349,My Thai Pot,Thai Food,West,Delivery / Self Pickup,Pls Enquire,,82222113.0,,635C Senja Road Singapore 673635,103.75832700000007,1.386540000000025
350,Naga Imo,Japanese,Central,Delivery / Self Pickup,$60 FOC else $5 delivery fee,96388182,85955111.0,,82 Club Street,103.84562700000004,1.2819510000000491
354,Nassim Hill Bakery Bistro Bar,Western,Central,Islandwide,$150 FOC,,,https://order.nassimhill.com.sg,56 Tanglin Road #01-03 Singapore 247964,103.82314050000008,1.305603000000076
355,Nelly's Retro Snacks,"Snacks, Biscuits",North,Delivery / Self Pickup,$50 FOC else $5 delivery fee,97687152,,,418 Yishun Avenue 11 #01-417,103.84725150000008,1.4248980000000415
356,New Station Snack Bar,Zi Char,Central,Delivery / Self Pickup,Pls Enquire,67342862,,,14 Scotts Road #05-95,103.83360750000008,1.3072680000000219
357,Newton Zheng Meng Kee Prawn Noodle Soup,"Prawn Noodle, Lor Mee",North,Self Pickup,,,,,414 Yishun Ring Road Singapore 760414,103.84659450000004,1.4245290000000637
358,Ng Soon Kee Fish & Duck Porridge,"Fish Soup, Braised Duck",East,Self Pickup,,67476014,,,117 Aljunied Avenue 2 #01-11,103.88702250000006,1.3206420000000207
359,Nifty Grill Western Food,Western,Central,Self Pickup,,93877828,,,166 Jalan Besar #05-01 Berseh Food Centre Stall 5,103.85689050000008,1.3073400000000674
361,Nonya Nonya Restaurant,Peranakan,North,Delivery / Self Pickup,$100 FOC / $50 with $10 delivery fee,62824021,91860855.0,,12 Maju Avenue,103.86576900000006,1.3649220000000355
366,O Banh Mi - Vietnamese Street Food,"Vietnamese Food, Banh Mi",South,Self Pickup,,63528929,,,302 Tiong Bahru Road #02-113 Tiong Bahru Plaza Singapore 168732,103.84498350000007,1.3000320000000443
367,o-komé,Rice Bowl,South,Delivery / Self Pickup,Pls Enquire,,96390920.0,https://www.facebook.com/okomesg/,102 Henderson Road Singapore 159562 (Unit 6) City Sprouts,103.82157900000004,1.2903660000000627
369,Okada Coffee & Sweets,"Cakes, Coffee",East,Delivery / Self Pickup,Pls Enquire,,93871532.0,,153 Joo Chiat Road Singapore 427431,103.90014900000006,1.3128750000000196
372,Omoté,Japanese,North,Delivery / Self Pickup,$5 delivery fee for postal code starting 77/78/56/57,,94521521.0,,301 Upper Thomson Road Singapore 574408,103.83082650000006,1.3548150000000305
373,One Bar Cafe,Western,East,Delivery / Self Pickup,Pls Enquire,87982625,,,1 Irving Place #01-25 The Commerze Singapore 369546,103.88643300000007,1.3362390000000346
380,Parklane Zha Yun Tun Mee House,Wanton Noodle,Central,Self Pickup,,94305881,,,91 Bencoolen Street # 01-53 Singapore 189652,103.85104050000007,1.3003020000000447
381,Patissier Woo,"Cakes, Pastries",West,Delivery / Self Pickup,Pls Enquire,96310150,,,76 Jalan Jurong Kechil Singapore 598589,103.77333000000004,1.3405500000000643
383,Penang Kitchen,"Assam Laksa, Prawn Mee",West,Delivery / Self Pickup,Pls Enquire,,91182022.0,,5 Coronation Road #01-05 Coronation Arcade Singapore 269406,103.81052700000004,1.323297000000025
385,Petite Joy Bakes,Cakes,East,Delivery / Self Pickup,Pls Enquire,,87754468.0,order.petitejoybakes.com,1 Irving Place #02-26 The Commerze @ Irving Singapore 369546,103.88643300000007,1.3362390000000346
387,Phoenix Roast,"Sio Bak, Char Siew",East,Self Pickup,,81444689,,,466 Crawford Lane #01-12,103.86260100000004,1.3050810000000297
388,Phuket Town Mookata,Mookata,North,Islandwide,$50 with delivery fee of $10,86130826,,,340 Ang Mo Kio Avenue 1 #01-1697,103.82920200000007,1.379709000000048
389,Play Nation,"Western, Snacks",East,Self Pickup,,69044885,,,1 Tampines Walk #B1-17/18/19 Singapore 528523,103.92641100000009,1.3665150000000494
390,Pretty Easy Cafe,Western,Central,Delivery / Self Pickup,"$100 FOC, $50-$70 ($15), $71-$99 ($10)",81912881,,,1 Coleman Street #B1-29 & 30 The Adelphi Singapore 408734,103.85118000000006,1.2911850000000413
391,Puncak Best Noodle*,"Muslim Food, Zi Char",Central,Delivery / Self Pickup,$35,67384348,,,14 Scotts Road #05-93/94,103.83360750000008,1.3072680000000219
394,PX Cafe,Western,East,Delivery / Self Pickup,$30 (within 1km with $5 delivery fee),62140380,88704135.0,,865 Mountbatten Road # 01-29 Singapore 437844,103.90124700000007,1.303965000000062
395,Qi Xiang Chicken Pot,Chicken Pot,North,Delivery / Self Pickup,$50 / Pls Enquire,93900880,,,973 Upper Serangoon Road Singapore 534725,103.88675250000006,1.3619880000000535
396,Quan Ji Teochew Noodles,Minced Meat Noodle,North,Self Pickup,,,91882844.0,,260 Ang Mo Kio Street 21 #01-06 Singapore 560260,103.83450300000004,1.3689180000000647
397,Quan Xiang Yuan (Jing Ji) Seafood Restaurant,Zi Char,Central,Delivery / Self Pickup,Pls Enquire,62946254,98222056.0,,252 Jalan Besar Singapore 208925,103.85829450000006,1.3096620000000598
398,Racines,"French, Chinese",South,Delivery / Self Pickup,Pls Enquire,64285110,,https://www.sofitel-singapore-citycentre.com/offers/racines-takeaway/,9 Wallich Street Singapore 078885,103.84506900000008,1.2769020000000637
400,Rajah Mas Catering,Muslim Catering,North,Delivery / Self Pickup,Pls Enquire,,88762625.0,,8A Admiralty Street #07-30 FoodXchange@Admiralty Singapore 757437,103.81469400000009,1.4631300000000351
401,Ramen Tenji,Ramen,South,Delivery / Self Pickup,,62765708,,,460 Alexandra Road #02-23 ARC Singapore 119963,103.80122550000004,1.2735630000000242
404,Revelry,Western,West,Islandwide,$50 with $10 delivery fee / Pls Enquire,92780466,,https://www.facebook.com/revelrysg,21 Lorong Kilat # 01-02 Singapore 598123,103.77324900000008,1.3408020000000533
405,Rice Bowl Gold,"Salted Egg Chicken Rice, Fried Rice",Central,Delivery / Self Pickup,10 pax with $15 delivery fee,96388757,,,1 Rochor Canal Road Sim Lim Square #02-01 Singapore 188504,103.85303850000008,1.3030200000000605
408,Robo Chef Fried Rice,Fried Rice,North,Self Pickup,,94881911,,,53 Ang Mo Kio Avenue 3 #03-12 Singapore 566933,103.84841250000005,1.3691880000000651
410,RojakStory (Grantral Mall),Rojak,West,Islandwide,$25 with $5 delivery fee,,97370177.0,,3151 Commonwealth Avenue West #01-26 Singapore 129581,103.76514900000006,1.3142700000000218
411,Royal Durian,"Durian, Cakes, Desserts",West,Delivery / Self Pickup,Pls Enquire,81868552,,,134 Jurong Gateway Road #01-303A Singapore 600134,103.73881950000003,1.333998000000065
412,Sabai Thai Cuisine,Thai Food,East,Self Pickup,,91111555,,,301 Ubi Avenue 1 #01-305 Singapore 400301,103.90195350000005,1.330686000000071
414,Sawadee Thai Cuisine,Thai Food,Central,Delivery / Self Pickup,$50,62386833,89322091.0,www.sawadee-cuisine.com,9 Tan Quee Lan Street. TQL Suites #01-01 Singapore 188098,103.85665200000005,1.2983130000000642
416,Seafood Park (Bedok South),Zi Char,East,Self Pickup,,64499687,,http://seafoodpark.getz.co/,69 Bedok South Avenue 3 #01-468 Singapore 460069,103.94338500000003,1.319319000000064
417,Seafood Park (Clementi),Zi Char,West,Self Pickup,,67757549,,http://seafoodpark.getz.co/,107 Clementi Street 12 #01-K1 Singapore 120107,103.76995950000008,1.322253000000046
418,Seafood Park (Commonwealth),Zi Char,West,Self Pickup,,,,http://seafoodpark.getz.co/,118 Commonwealth Crescent #01-29 Singapore 140118,103.80069450000008,1.3067460000000324
419,Seafood Park (Jurong),Zi Char,West,Self Pickup,,68972308,,http://seafoodpark.getz.co/,496 Jurong West Street 41 #01-84 Singapore 640496,103.72383450000007,1.3499910000000455
420,Seafood Park (Tampines),Zi Char,East,Self Pickup,,62600548,,http://seafoodpark.getz.co/,823A Tampines Street 81 #01-02 Singapore 521823,103.93347600000004,1.348794000000055
421,Seafood Tripod @ Garden,Zi Char,West,Islandwide,Pls Enquire,62649788,93379118.0,,2 Jurong Gateway Road #01-02,103.74294600000007,1.3346010000000206
422,Sembawang Claypot Rice,"Claypot Rice, Fish Head Curry",North,Islandwide,Pls Enquire,97773313,,,4 Jalan Tampang Singapore 758948,103.82361750000007,1.4421780000000695
425,Seng Kee Bak Kut Teh,Bak Kut Teh,North,Self Pickup,,91182595,,,453 Ang Mo Kio Ave 10 #01-31 Signapore 560453,103.85598150000004,1.3685850000000528
428,Sheng Ji Shao La,"Roast Duck, Char Siew",West,Self Pickup,,91372767,,,55 Sungei Kadut Street 1 Stall 3 Singapore 729358,103.75006950000005,1.42227900000006
430,Shikaa By Nawab's,"Indian Muslim, Nasi Briyani",Central,Islandwide#,Pls Enquire,,87927030.0,,73 Desker Road,103.85565750000006,1.3088880000000245
432,Shisen Hanten by Chen Kentaro,"Mapo Tofu, Chinese, London Duck",Central,Islandwide,"$50 FOC to Orchard locations, $80 FOC IW",68316288,,https://shop-orchard.meritushotels.com/,Level 5 Chatterbox 333 Orchard Road Singapore 238867,103.83636600000006,1.3020570000000475
433,Shrove Tuesday,Ice Cream,Central,Self Pickup,,,,,94 Toa Payoh Lorong 4 #01-32,103.85359200000005,1.3256100000000401
434,Shukuu Izakaya,Japanese,South,Islandwide,$100 FOC / Pls Enquire,63279240,90124084.0,https://shukuu.sg/,8 Stanley Street Singapore 068727,103.84778250000005,1.2801150000000234
435,Siang Hee Seafood,Zi Char,North,Self Pickup,,97364067,,,49A Serangoon Garden Way Stall 20 Singapore 555945,103.86637200000007,1.3628610000000663
436,Simple Nasi Lemak,Nasi Lemak,East,Delivery / Self Pickup,Pls Enquire,81886325,96392486.0,,114 Lavender Street #01-09 CT Hub 2,103.86375750000008,1.3115700000000743
438,Sin Heng Claypot Bak Kut Teh,Bak Kut Teh,East,Self Pickup,,63458754,,,439 Joo Chiat Rd Singapore 427652,103.90438800000004,1.3071780000000217
439,Sin Hoi San Eating House,Zi Char,East,Self Pickup,,64406956,92354274.0,,187 East Coast Road Singapore 428893,103.90628700000008,1.307106000000033
440,Sin Kian Heng,Minced Pork Noodle,North,Delivery / Self Pickup,Pls Enquire,,98328149.0,,22 Sin Ming Road,103.83939450000008,1.3572810000000572
441,Sin Thor Eunos Bak Kut Teh,Bak Kut Teh,South,Islandwide,Pls Enquire,,90106568.0,,1 Wholesale Centre Pasir Panjang Singapore 110001,103.77912600000008,1.2852810000000545
442,Sinn Ji Hainanese Chicken Rice,Chicken Rice,North,Islandwide,$30,62580855,,,275 Thomson Rd #01-03 Singapore 307645,103.84155000000004,1.3211460000000557
445,Soh Kee Cooked Food,"Chicken Porridge, Yu Sheng",West,Self Pickup,,96716446,,,505 Jurong West Street 52 #01-44,103.71844350000003,1.349676000000045
447,Soi Thai Soi Nice (Jurong),Thai Food,West,Delivery / Self Pickup,,63391391,,,50 Jurong Gateway Road #03-21 JEM Singapore 608549,103.74326100000008,1.3325490000000286
448,Soi Thai Soi Nice (Seng Kang),Thai Food,North-East,Delivery / Self Pickup,,65812190,,,33 Sengkang West Avenue #01-28/29/30 Singapore 797653,103.87623600000006,1.3914000000000328
452,Strangers’ Reunion,"Cafe, Cakes, Coffee",Central,Delivery / Self Pickup,E-mail to Enquire,,,,33-35 Kampong Bahru Road Singapore 169356,103.83637950000008,1.276911000000041
456,Sumo-Ya,Japanese,South,Delivery / Self Pickup,,69049116,,,3 Pickering Street #01-52 Nankin Row Singapore 048660,103.84742700000004,1.284291000000053
457,Super Loco Customs House,"Taco Kits, Elotes, Churros",South,Islandwide,FOC if within 1.5km / > $80 - $10 delivery fee else $18,98160659,,,70 Collyer Quay #01-04 Customs House Singapore 049323,103.85349750000006,1.2825090000000614
458,Super Loco Robertson Quay,"Tacos, Burrito Bowls, Burritos",Central,Islandwide,FOC if within 1.5km / > $80 - $10 delivery fee else $18,98157221,,,60 Robertson Quay #01-13 The Quayside Singapore 238252,103.83920100000006,1.2900870000000282
459,Sushi Matsuo,Japanese,Central,Delivery / Self Pickup,$50,63562603,97581600.0,,1 Goldhill Plaza # 01-17 (Podium Block) Singapore 308899,103.84289100000007,1.3178250000000276
460,Swatow Seafood Restaurant (Serangoon),"Teochew, Braised Duck, Dumplings",North,Islandwide,$80 FOC / Pls Enquire,92274177,,,22 Kensington Park Road Singapore 557271,103.86680400000006,1.3654350000000477
461,Swatow Seafood Restaurant (Toa Payoh),"Teochew, Braised Duck, Dumplings",Central,Islandwide,$80 FOC / Pls Enquire,92274177,,,181 Lorong 4 Toa Payoh #02-602 Singapore 310181,103.85097750000006,1.333620000000053
462,Swee Choon Tim Sum Restaurant,Dim Sum,Central,Delivery / Self Pickup,$5 delivery fee flat,,,https://sweechoon.oddle.me,191 Jalan Besar Singapore 208882,103.85691300000008,1.3082130000000234
465,Taan,"Grill, Bento",Central,Islandwide,Pls Enquire,,83300957.0,,30 Liang Seah Street Singapore 189051,103.85630550000008,1.2983490000000302
466,Tai Seng Fish Soup,Fish Soup,West,Self Pickup,,98418617,,,3 Yung Sheng Road #03-145 Singapore 618499,103.72158450000006,1.3347180000000662
467,Tai Seng Turtle Soup,"Turtle Soup, Crocodile Soup",North,Islandwide,$50 FOC,96907313,,https://www.facebook.com/taisengturtlesoup/,2 Jalan Lokam #01-56 Kensington Square Singapore 537846,103.88269800000006,1.345608000000027
473,Tamashii,Japanese,Central,Islandwide,$180 FOC else $10 delivery fee,89222246,,,12 North Canal Road #02-01 Singapore 048825,103.84880850000008,1.2862530000000447
475,Tan's Tu Tu (Clementi),Tu Tu Kueh,West,Self Pickup,,,97372469.0,,449 Clementi Avenue 3 #01-211 Singapore 120449,103.76499600000005,1.3132080000000315
476,Tan's Tu Tu (Havelock),Tu Tu Kueh,Central,Self Pickup,,,97372469.0,,22B Havelock Road #01-25 Singapore 162022,103.82936400000006,1.2877560000000585
477,Tang Kay Kee Fishhead Bee Hoon,Fishhead Beehoon,Central,Delivery / Self Pickup,Pls Enquire,81572641,,,531A Upper Cross Street #01-70,103.84582500000005,1.285299000000066
478,Tanglin Halt Lor Mee,Lor Mee,West,Self Pickup,,83888491,,,48A Tanglin Halt Road Stall 14 Singapore 148813,103.79772900000006,1.3005360000000223
480,Tasty Soup Yong Tau Fu,Yong Tau Fu,South,Delivery / Self Pickup,Delivery fee between $6-$12,,96536421.0,,115 Bukit Merah Veiw #01-59 Singapore 151115,103.82182200000005,1.2855060000000549
484,Thai Hao Chi Mookata,"Thai Food, Bento",North,Delivery / Self Pickup,Limited to North / North-East,,85535581.0,,908 Upper Thomson Road Singapore 787111,103.81833450000005,1.398456000000067
485,Thai-licious,"Thai Food, Boat Noodle",Central,Self Pickup,,69179857,82226337.0,https://www.facebook.com/thailiciousboatNoodle,8 Liang Seah Street #01-01,103.85633250000006,1.2979170000000408
488,The Beef Station,Beef Noodle,Central,Delivery / Self Pickup,$50,,63849149.0,,2 Tai Thong Crescent #01-05 The Venue,103.86927000000009,1.328796000000068
489,The Cliff,Western,South,Self Pickup,,67088310,,www.sofitel-singapore-sentosa.com,2 Bukit Manis Road Sentosa Island Singapore 099891,103.82749650000005,1.2465630000000374
491,The Dempsey Cookhouse & Bar,Western,Central,Delivery / Self Pickup,$100 FOC,81210176,,,Block 17D Dempsey Road Singapore 249676,103.81022550000006,1.3056930000000762
493,The Fabulous Baker Boy,"Cakes, Chicken and Waffle, Prawn Pasta",Central,Islandwide,$50 with $5 delivery fee / Pls Enquire,66948336,,,70 River Valley Road #01-15 Singapore 179037,103.84571250000005,1.2921840000000202
494,The Garden Kitchen,,South,Outram,$30 FOC else $3-$6 delivery fee,81258827,,,10 Raeburn Park #01-28,103.83366150000006,1.2736080000000243
496,The Happy Harvester,"Fruits, Juices, Grocery",Central,Delivery / Self Pickup,,86998869,,,31C Exeter Road #B1-01,103.83832800000005,1.2985650000000533
498,The Meathouse*,"Western, Halal",East,Delivery / Self Pickup,,62601752,,,2 Tampines Central 5 #05-04 Singapore 529509,103.94378550000005,1.352358000000038
499,The Naughty Chef,"Western, Pizza, Risotto",East,Islandwide,$50 FOC else $30 min order / Pls Enqiure,91342626,,www.thenaughtychefsg.com,348 Bedok Road #02-14 Singapore 469560,103.94825850000007,1.331433000000061
500,The Orchard Cafe,"Laksa, Nasi Goreng, Mango Cake",Central,Delivery / Self Pickup,$60 FOC for Orchard Area,67396565,,,442 Orchard Road Singapore 238879,103.82837400000005,1.3076280000000224
504,The Peranakan,Peranakan,Central,Islandwide,Pls Enquire,90698800,,,442 Orchard Road Level 2 Singapore 238879,103.82837400000005,1.3076280000000224
506,The Seagrill,Western,West,Islandwide,$30 / 2 hours in advance,86934699,,http://www.seagrill.com.sg/,2 Bukit Batok West Avenue 7 #01-9B Singapore 659003,103.74803550000007,1.3663170000000378
510,The Three Peacocks,BBQ Seafood,South,Islandwide,Pls Enquire,91787876,,,8 Port Road Singapore 117540,103.80506850000006,1.2649860000000217
511,The White Ombré,"Cakes, Cookies",Central,Islandwide,$60 / Pls Enquire,,,www.thewhiteombre.com,206 Toa Payoh North #01-1209 Singapore 310206,103.84650900000008,1.3423140000000444
512,The Wine & Gourmet Friends,Western,South,Islandwide,$80 FOC / Pls Enquire,88230688,,https://www.facebook.com/TWGFriends/,48 Bukit Pasoh Road Singapore 089859,103.84044750000004,1.2798270000000684
513,Thunder Tea Rice,"Thunder Tea Rice, Vegetarian",East,Islandwide,$80 FOC else min $40 with delivery fee,96998369,,www.thundertearice.com.sg,328 Joo Chiat Road #01-04 Singapore 427585,103.90220100000005,1.3087350000000697
514,Thunderbolt Tea by Boon Lay Traditional Lui Cha,"Thunder Tea Rice, Vegetarian",East,Delivery / Self Pickup,$60 FOC else $5 delivery fee,,93398979.0,https://www.thunderbolt.sg,81 Ubi Ave 4 #01-07 UB One Singapore 408830,103.89178350000009,1.3335120000000416
515,Tian Xiang Wanton Noodle,Wanton Noodle,West,Self Pickup,,,81818786.0,,120 Bukit Merah Lane 1 #01-25 Singapore 150120,103.80464550000005,1.286388000000045
516,Tie Fun Wan (Kovan),Rice Bowl,North,Delivery / Self Pickup,Pls Enquire,97396648,,https://tiefunwan.oddle.me,50 Hougang Ave 1 #01-00 J’Forte Sportainment Centre Singapore 538885,103.88808450000005,1.3603050000000394
517,Tie Fun Wan (Rangoon),Rice Bowl,Central,Self Pickup,,97386648,,,89 Rangoon Road #01-03 Urban Loft Singapore 218375,103.85390700000005,1.314162000000067
521,Tiong Bahru Tau Suan,Dessert,Central,Self Pickup,,92728737,,,30 Seng Poh Road #02-55 Singapore 168898,103.83241950000007,1.2846870000000195
522,TOBY’S Kopi • Toast • Bakery,Western,West,Self Pickup,,63162422,88213311.0,,8 Boon Lay Way Tradehub21 #01-35 Singapore 609964,103.75425450000006,1.3285260000000676
523,Tolido’s Espresso Nook,Western,Central,Delivery / Self Pickup,$50,,86298241.0,,462 Crawford Lane #01-63 Singapore 190462,103.86097200000006,1.3046130000000744
524,Tong Ah Eating House,Zi Char,South,Delivery / Self Pickup,$10 limited to within 10 mins walk,62235083,,,35 Keong Saik Road,103.84141500000004,1.2801150000000234
530,Traditional Wanton Mee,Wanton Mee,North,Self Pickup,,,91551743.0,,313A Sembawang Drive Stall 3 Singapore 751313,103.82140350000009,1.4441490000000385
532,Try Fresh XO Seafood Noodles 长鲜,"Seafood Bee Hoon, Mee Sua",Central,Self Pickup,,92337100,91801834.0,,100 Jalan Sultan Road #01-06/07 Singapore 199001,103.86184950000006,1.3029480000000717
534,Un-Yang-Kor-Dai,Thai Food,South,Delivery / Self Pickup,,67878575,82981509.0,https://tinyurl.com/UYKDsgTakeAwayMenu,57 South Bridge Road #01-02 Singapore 058688,103.84835850000007,1.2870990000000688
535,Urban Smokeshack,"Steak, Pork Platter, Western",East,Delivery / Self Pickup,,,97262482.0,,3014 Bedok Industrial Park E Singapore 489980,103.95028800000006,1.335456000000022
536,V-DINING by V-ZUG,"Noodles, Cheese Cake, Sandwich",Central,Islandwide,Pls Enquire,69504868,,https://v-dining.com/,6 Scotts Rd #03-13 Singapore 228209,103.83305850000005,1.305810000000065
538,Verimix,Vegetarian,West,Self Pickup,,96687442,,,73A Ayer Rajah Crescent Timbre+ #01-23,103.78741950000006,1.2972780000000625
539,Village Curry,"Masala Dosai, Biriyani, Chapati",Central,Delivery / Self Pickup,Pls Enquire,,83376466.0,,20 Kerbau Road,103.85150850000008,1.3070070000000555
540,Wakey Wakey,"Cafe, Cakes, Coffee",Central,Delivery / Self Pickup,E-mail to Enquire,,,,302 Beach Road #01-04/5 Singapore 199600,103.86447750000008,1.3036680000000729
541,Wan He Lou,"Chinese, Lobster Porridge",Central,Islandwide,$65 / Pls Enquire,62948057,,http://order.wanhelou.com,65 Maude Road # 01-01 Singapore 208347,103.85809650000004,1.3079610000000343
542,Wang Fu Roasted Delight,"Soup, Sio Bak, Char Siew",East,Self Pickup,,97124567,,,18 Bedok South Road #01-45 Singapore 460018,103.93473600000004,1.3206240000000662
543,Wang's Roasted Delight,"Char Siew, Sio Bak",North,Delivery / Self Pickup,Pls Enquire,96649465,,,339 Ang Mo Kio Avenue 1 Singapore 560339,103.84911450000004,1.3650660000000698
544,Wanglee Seafood Restaurant,Zi Char,Central,Self Pickup,Pls Enquire,87115600,,,94 Lor 4 Toa Payoh Singapore 310094,103.84953750000005,1.3388940000000389
545,Wanton Fu,Wanton Noodle,Central,Delivery / Self Pickup,Pls Enquire,88199089,,,"380 Jalan Besar, ARC 380 #01-09 Singapore 209000",103.86033300000008,1.3132170000000656
546,Wanton Mee Noodle House,"Wanton Noodle, Carrot Cake",East,Islandwide,$20 / Pls Enquire,66363326,84984137.0,,312 Bedok Rd Singapore 469475,103.94858250000004,1.3308660000000714
550,Wee's Family Coffee Shop,Zi Char,East,Self Pickup,,67437482,,,117 Bedok Reservoir Road #01-50 Singapore 470117,103.90869000000004,1.3314150000000495
551,West Co’z Cafe (Choa Chu Kang North),Western,West,Delivery / Self Pickup,$30 with delivery fee of $3 up to 8km,67620180,,,21 Choa Chu Kang North 6 #01-28 Yew Tee Point,103.74666300000007,1.3970610000000647
554,WhatheFish!,"Western, Fusion",South,Delivery / Self Pickup,$50 FOC else min order $30,86448652,,www.whathefish.sg/delivery/,2 Venture Drive #02-42 Vision Exchange Singapore 608526,103.74457500000005,1.3301550000000475
556,Wonder Gelato,"Ice Cream, Gelato",South,Delivery / Self Pickup,$80 FOC else $15 delivery fee,96627556,83998761.0,,261 Waterloo Street #01-30 Singapore 180261,103.85207550000007,1.2987540000000308
558,Woon Woon Pek Beehoon,White Beehoon,East,Delivery / Self Pickup,Pls Enquire,94511633,,,2 Changi Village Road #01-52,103.98809250000005,1.3886100000000283
559,Xian Ji Porridge Tiong Bahru,Porridge,Central,Self Pickup,,98634647,,,57 Eng Hoon Street #01-72 Singapore 440057,103.83347700000007,1.2848040000000651
562,Xin Bao Sheng Duck Rice,"Duck Rice, Kway Chap",West,Self Pickup,,94224397,,,503 West Coast Drive #01-05 Singaproe 120503,103.75975350000004,1.311804000000052
564,Xin Yuan Ji,Fish Soup,Central,Delivery / Self Pickup,$30 FOC,81020988,,,31 Tan Quee Lan Street Singapore 188117,103.85619750000006,1.2988800000000538
565,Ya Hua Bak Kut Teh,Bak Kut Teh,South,Islandwide,Pls Enquire,62229610,92248988.0,https://outramyahuabakkutteh.oddle.me/,7 Keppel Road PSA Tanjong Pagar Complex #01-05/07 Singapore 089053,103.84233750000004,1.2714300000000662
566,Yam's Kitchen,Zi Char,East,Self Pickup,,65845884,81286988.0,,1 Pasir Ris Close #04-101 E!Hub Singapore 519599,103.95482850000008,1.3774950000000672
567,Yan Thai Kitchen & Mookata,"Thai Food, Mookata",Central,Delivery / Self Pickup,$40 FOC else $10 with $2 delivery fee,83173172,,,Blk 177 Toa Payoh Central #01-176 Singapore 310177,103.84885350000008,1.3338990000000308
568,Yaowarat Seafood,"Thai Food, Seafood, Crab Beehoon",North,Delivery / Self Pickup,$45,,,www.yaowaratseafood.com.sg,27 Teck Chye Terrace Singapore 545729,103.87666350000006,1.3532940000000622
569,Yeogi Korean Restaurant and Bar,Korean,Central,Delivery / Self Pickup,,66768468,97802953.0,,12 Kim Keat Rd #01-01 Singapore 328841,103.85286300000007,1.3239810000000602
570,Yhingthai Palace,Thai Food,Central,Delivery / Self Pickup,,63371161,,https://yhingthaipalace.oddle.me/en_SG,36 Purvis Street #01-04 Singapore 188613,103.85490600000008,1.2964680000000612
571,Ying Jang Thai Food,Thai Food,South,Self Pickup,,83799558,,,Tanjong Pagar Plaza Market #02-50,103.85014500000005,1.2844170000000759
573,Yong Le Economic Bee Hoon Nasi Lemak (Aljunied),"Nasi Lemak, Bee Hoon",East,Self Pickup,10 pax,,98293487.0,,116 Aljunied Avenue 2,103.88669850000008,1.321245000000033
574,Yong Le Economic Bee Hoon Nasi Lemak (Canberra),"Nasi Lemak, Bee Hoon",North,Self Pickup,10 pax,,98293487.0,,105 Canberra Street,103.83239250000008,1.448865000000069
575,Yong Le Mixed Rice,"Economical Rice, Chye Peng",Central,Self Pickup,10 pax,,83324519.0,,128 Lor 1 Toa Payoh,103.84433100000007,1.3378140000000371
576,Yoon's Traditional Teochew Kueh,Kueh,East,Delivery / Self Pickup,Pls Enquire,96665134,,,153 Kampong Ampat #07-05,103.88269800000006,1.333998000000065
578,YOUNGS Bar & Restaurant,Western,North-East,Islandwide,Pls Enquire,67342850,88183348.0,www.youngs.com.sg,3 Hyde Park Gate Singapore 799531,103.86760950000007,1.4071140000000355
580,Yu Ki Congee,Porridge,West,Self Pickup,,,98520888.0,,3 Yung Sheng Road #02-09 Singapore 618499,103.72158450000006,1.3347180000000662
582,Yue Lai Xiang Delights,"Ban Mian, Handmade Noodle",North,Delivery / Self Pickup,,,90178778.0,,22 Sin Ming Road #01-224,103.83939450000008,1.3572810000000572
584,Yuzutei,Japanese,South,Islandwide,$60 with $6 delivery fee,,96894092.0,https://yuzutei.oddle.me/,100G Pasir Panjang Road #01-01 Interlocal Center Singapore 118523,103.79632950000007,1.2773520000000644
585,Z-Z Bak Kut Teh,Bak Kut Teh,South,Self Pickup,,96316737,,,7 Everton Park Singapore 080007,103.83918750000004,1.2769920000000639
586,Zhao An Granny Grass Jelly,Grass Jelly,Central,Self Pickup,,,91467313.0,,505 Beach Road #01-58 Golden Mile Food Centre Singapore 199583,103.86388350000004,1.3028760000000261
587,Zichar House (Boon Keng),Zi Char,Central,Self Pickup,,84227975,,,11 Upper Boon Keng Road,103.87091250000009,1.3142430000000331
588,Zichar House (Pasir Ris),Zi Char,East,Self Pickup,,90831183,,,446 Pasir Ris Drive 6,103.95772650000004,1.3703040000000328
589,四炒 Si Chao,"Carrot Cake, Char Kway Teow",East,Self Pickup,,,,,4A Eunos Crescent #01-11 Singapore 402004,103.90426200000007,1.3203270000000202
590,四马路 Goreng Pisang,"Goreng Pisang, Banana Fritters",Central,Self Pickup,,,93673353.0,,270 Queen Street Singapore 180270,103.85406450000005,1.3010580000000687
592,金宝砂煲肉骨茶,"Bak Kut Teh, Chicken Rice",West,Limited Delivery,$40 FOC / $10 with a delivery fee of $3,94818480,96393998.0,,143 Teck Whye Lane Singapore 680143,103.75310250000007,1.3804920000000607
593,Deji Soy Sauce Chicken,Soy Sauce Chicken,West,Limited Delivery,$15 with $5 delivery fee (Jurong only),93873878,,,3 Yung Sheng Road #02-85 Singapore 618499,103.72158450000006,1.3347180000000662
594,Xin Xin Charcoal Claypot Rice,Claypot Rice,North,Limited Delivery,"$5 delivery fee within 5km, else $8 for 5-10km",96274113,,,209 Hougang Street 21 #01-62 Kovan Food Centre,103.88537100000008,1.3615650000000414
596,Da Po Curry Chicken Noodle,"Chicken Rice, Curry Chicken Noodle",Central,Self Pickup,,,81399000.0,,505 Beach Road #B1-53 Golden Mile Food Centre Singapore 199583,103.86388350000004,1.3028760000000261
597,Dessert Guru,"DIY Bubble Tea, Jelly Cups",East,Islandwide,$80 / Pls Enquire,96458655,,,3015 Bedok North Street 5 #06-21,103.94742600000006,1.3367520000000468
598,One Ocean Seafood,"Assam Fish Head, Zi Char",North,Islandwide,$60 FOC else min $30 order with $10 delivery fee,62563973,83871791.0,,7 Mandai Link #01-06 Singapore 723658,103.75799850000004,1.4111730000000762
599,Yao Heng Cooked Food,"Satay Bee Hoon, Prawn Noodle",West,Islandwide,Pls Enquire,,,https://www.Facebook.com/yao.heng.cooked.food.delicious/,221 Boon Lay Place #01-101 Singapore 642221,103.71255300000007,1.3465170000000626
600,Yi Jia South Village Seafood Restaurant,"Zi Char, Curry Fish Head, Salted Egg Crab",East,Delivery / Self Pickup,,91705207,,,550-552 Macpherson Road Singapore 368229,103.88496600000008,1.3324500000000512
601,The Lokal,Western,South,Islandwide,,,64239918.0,www.thelokalsingapore.com,136 Neil Road Singapore 088865,103.84087500000004,1.2783960000000434
602,Freshly Made Chee Cheong Fun,"Chee Cheong Fun, Congee, Porridge",East,Self Pickup,,94372455,,,51 Old Airport Road #01-155 Singapore 390051,103.88580750000006,1.3082490000000462
603,7 Wonders Seafood / Mala Hotpot,"Zi Char, Curry Fish Head, Chilli Crab",East,Islandwide,$30 / Pls Enquire,83332207,,,236 Upper Thomson Road Singapore 574367,103.83500700000008,1.3531410000000506
604,Hungrychef,"Western, Pizza, Shepherd's Pie",Central,Islandwide,$50 / Pls Enquire,91371131,,,314A Tanglin Road Phoenix Park Office Campus,103.81526100000008,1.2981240000000298
605,Steakville,"Western, Steak, Truffle Fries",Central,Islandwide,$30 / Pls Enquire,93863106,,,91 Bencoolen Street #01-06 Singapore 189652,103.85104050000007,1.3003020000000447
606,The Bettership,"Japanese, Salmon Sashimi, Donburi",Central,Islandwide,$20 / Pls Enquire,97646117,,,2 Handy Road #01-03 Singapore 229233,103.84779150000008,1.2991860000000202
607,PastaWa,Pasta,Central,Islandwide,Pls Enquire,,90554503.0,,77 Aliwal Street Singapore 199948,103.86027000000007,1.3033620000000496
608,Rumah Bebe,"Peranakan, Nasi Ulam, Laksa Goreng",East,Islandwide,Pls Enquire,98162177,,,113 East Coast Road Singapore 428803,103.90446450000007,1.3059000000000651
609,Pope Jai Thai,"Thai Food, Set Meal",Central,Islandwide,$80 FOC else min $20 with $5 delivery fee,,96424539.0,www.popejai.com/delivery,2 Orchard Link #03-03 Singapore 237978,103.83598350000005,1.3012560000000235
610,Huay Kwang Thai,Thai Food,South,Islandwide,Pls Enquire,86869990,,,13 North Canal Road Singapore 048826,103.84876350000008,1.2862800000000334
611,Le Pantry,"Ice Latte, Ice Mocha, Ice Americano",East,Delivery / Self Pickup,$25 / $15 FOC for Pasir Ris area,91266856,,https://www.facebook.com/lepantrysg/,110 Pasir Ris Hawker Centre #02-15 Singapore 519641,103.94421750000004,1.383237000000065
612,Ssamxonebowlman,"Korean, Healthy Bowl",South,Islandwide,"$50 FOC else $4 east and central, $5 for west and other areas",65098493,96427968.0,https://www.facebook.com/pg/ssamxonebowlman/menu/,8A Marina Boulevard #B2-67 Singapore 018984,103.85404200000005,1.2801330000000348
613,Foody Bento & Cafe,"Curry Fish Head, Nasi Lemak, Herbal Prawn",Central,Islandwide,$30 / Pls Enquire,,,www.foody.sg,1 Anthony Road #01-02 Singapore 229944,103.83911100000006,1.310508000000027
614,Chapter 55,"Pizza, Pasta, BBQ Pork Ribs",South,Islandwide,$50 FOC else min $40 with $5 delivery fee,62212219,86882798.0,,55 Tiong Bahru Road #01-37 Singapore 160055,103.83413400000006,1.2844170000000759
615,Pietro Ristorante Italiano,"Italian, Pizza, Pasta",North,Islandwide,$60 FOC else min $50 with $8 delivery fee,64845528,88580900.0,,12 Jalan Kelulut Singapore 809030,103.87605150000007,1.3834080000000313
617,The Halia,"Western, Fusion, Local",Central,Islandwide,"No min order, delivery fee $5.35",87980180,,,1 Cluny Road Singapore Botanic Garden Singapore 259569,103.81634550000007,1.3125150000000758
620,Xiao Xiao Coffee Stall,"Drinks, Tea, Coffee",South,Self Pickup,,,,,122 Bukit Merah Lane 1 Singapore 150122,103.80419550000005,1.2864600000000337
622,Wah Seng Kee Traditional Wanton Noodle,"Wanton Noodle, Dumpling Noodle",North,Islandwide,Delivery fee between $3 and $12 / Pls Enquire,91551743,,,313A Sembawang Drive Singapore 751313,103.82140350000009,1.4441490000000385
624,DMQ Eating House,"Handmade Noodle, Ban Mian, Mee Hoon Kueh",East,Islandwide,Pls Enquire,,98581589.0,,304 Ubi Avenue 1 #01-95 Singapore 400304,103.90122900000006,1.3295520000000352
625,Sabai Kakis Authentic Thai Cuisine & Mookata,"Thai Food, Mookata",East,Partial,$50 FOC else min order $20 with delivery fee / Pls Enquire,90701484,,,304 Ubi Avenue 1 #01-95 Singapore 400304,103.90122900000006,1.3295520000000352
626,Noodle Thai Thai Kitchen,Thai Food,Central,Islandwide,$30 / Order online,,,noodlethaithaikitchen.getz.co,20 Ah Hood Road #01-08A Singapore 329983,103.83044850000005,1.29649500000005
627,My NoNNa’s (Social Enterprise),"Western, Fusion, Local",East,Islandwide,Pls Enquire,65810190,,,8 Somapah Road Blk 2 #01-203,103.96281150000004,1.3411530000000198
628,Famous Satay 美味沙爹,"Satay, BBQ Chicken Wings",South,Islandwide,$20 / Pls Enquire,91853452,,,121 Pasir Panjang Road Singapore 118543,103.79151900000005,1.2757860000000392
629,Pizza Arc (Yishun),Pizza,North,Islandwide,Order online,,,www.pizzaarc.com,236 Yishun Ring Rd #01-1020 Singapore 760236,103.83899850000006,1.4341770000000338
630,Pizza Arc (West Coast),Pizza,West,Islandwide,Order online,,,www.pizzaarc.com,1 West Coast Drive #01-01 (NEWest),103.75745850000004,1.3164030000000366
631,Plum Village Restaurant,"Abacus Beads, Hakka Stuffed Tofu",North,Self Pickup,Order timings: 10am to 2pm; 4pm to 8.30pm,,96774431.0,,16 Jalan Leban (off Thomson Upper Road) Singapore 577554,103.82927400000005,1.371654000000035
632,Royale,"Western, Fusion, Local",Central,Self Pickup,Pls Enquire,65216030,,https://www.mercure-singapore-bugis.com/offers/royale-takeaway-special/,122 Middle Road Singapore 188973,103.85311950000005,1.2996090000000322
634,Nature Vegetarian Cuisine,Vegetarian,South,Delivery / Self Pickup,$30 / Pls Enquire,,81109110.0,,112 Bukit Purmei Road #01-201 Singapore 090112,103.82575950000006,1.274445000000071
635,Uncle Penyet,"Ayam Penyet, Steam Chicken",South,Islandwide,Visit website to order,,98290241.0,https://forms.gle/tXGxLoVMQv31HtpC7,"12 Science Drive 2, NUS Frontier Phase One, Singapore 117549",103.78051200000004,1.2953880000000595
636,Best Food Caterer,Thai Style Pineapple Fried Rice,East,Islandwide,$30 / Pls Enquire,64604004,,https://www.bestfoodcaterer.sg/bento-meal,"30 Kallang Pudding Rd, Valiant Industrial Building, #06-08",103.87796850000007,1.3290120000000343
638,Lam's Garden 林苑,"Zi Char, Curry Fish Head, Fish Head Steamboat",Central,Islandwide,$15 with $5 delivery fee,96386387,,,371 Beach Road #02-29 Singapore 199597,103.86233100000004,1.3023180000000707
639,Fireless Kitchen,Rice Bowl,Central,Islandwide,Pls Enquire,,96614469.0,www.firelesskitchen.com/menu,109 North Bridge Road #02-04 Singapore 179097,103.85024400000003,1.2912030000000527
640,Chowon Garden Korean Restaurant,Korean,South,Delivery / Self Pickup,Pls Enquire,87404829,,,2 Peck Seah Street #01-01 Singapore 079305,103.84494300000006,1.2788640000000555
641,Rainbow Fish Soup,"Fish soup, Tom Yum soup, Hong Zao Ji",West,Self Pickup,,97640725,98190294.0,,373 Bukit Batok Street 31 #01-250,103.75039800000008,1.3589280000000485
643,The Meeting Room,"Burger, Nasi Goreng, Curry Noodle",West,Self Pickup,$50 / Pls Enquire,64670600,,,6 Cheong Chin Nam Road Singapore 599732,103.77525150000008,1.3425660000000335
645,Joyfull Roasted Delights,"Roasted Duck, Pig's Trotter, Sio Bak",West,Islandwide,Pls Enquire,96642889,,,274 Bukit Batok East Avenue 4 Singapore 650274,103.75796250000008,1.3479480000000308
646,Jiu Xiang Xiang Roasted Delights,"Roasted Duck, Minced Meat Noodle",Central,Islandwide,Pls Enquire,94307757,,,588F Balestier Road Singapore 329899,103.84312500000004,1.3267710000000648
647,The Plattering Co.,"Family Platters, lunch & dinner bowls",Central,Islandwide,$60 FOC (promo code: DELIVERFORFREE),90704834,,https://theplatteringco.oddle.me,20 Cavan Road Singapore 209851,103.86168300000008,1.3108140000000503
648,Lao Jiang Superior Soup (Punggol),"Superior Soup, Bittergourd Soup, Fish Soup",North-East,Self Pickup,,62440219,98185076.0,,681 Punggol Drive #01-42/43 Singapore 820681,103.90563900000006,1.4067810000000236
649,Lao Jiang Superior Soup (Bedok),"Superior Soup, Bittergourd Soup, Fish Soup",East,Self Pickup,,63858937,98185076.0,,430 Upper Changi Road #01-07 Singapore 487048,103.94620200000008,1.3317750000000501
650,Lao Jiang Superior Soup (Bukit Timah),"Superior Soup, Bittergourd Soup, Fish Soup",West,Self Pickup,,64652660,98185076.0,,2 Cheong Chin Nam Road Singapore 599727,103.77529650000008,1.342251000000033
